$GPRMC,024843.00,A,4042.11220,N,07512.52804,W,0.015,,230214,,,A*61
$GPVTG,,T,,M,0.015,N,0.027,K,A*22
$GPGGA,024843.00,4042.11220,N,07512.52804,W,1,08,1.34,106.3,M,-34.4,M,,*6B
$GPGSA,A,3,01,03,08,07,09,11,13,23,,,,,2.40,1.34,1.99*04
$GPGSV,3,1,09,01,13,166,36,03,56,051,34,07,68,306,30,08,34,314,32*71
$GPGSV,3,2,09,09,29,314,31,11,38,162,41,13,32,215,32,23,10,190,35*76
$GPGSV,3,3,09,28,,,23*7B
$GPGLL,4042.11220,N,07512.52804,W,024843.00,A,A*7A
$GPRMC,024844.00,A,4042.11210,N,07512.52816,W,0.028,,230214,,,A*68
$GPVTG,,T,,M,0.028,N,0.051,K,A*2D
$GPGGA,024844.00,4042.11210,N,07512.52816,W,1,08,1.34,107.2,M,-34.4,M,,*6C
$GPGSA,A,3,01,03,08,07,09,11,13,23,,,,,2.40,1.34,1.99*04
$GPGSV,3,1,09,01,13,166,36,03,56,051,34,07,68,306,30,08,34,314,32*71
$GPGSV,3,2,09,09,29,314,31,11,38,162,41,13,32,215,33,23,10,190,36*74
$GPGSV,3,3,09,28,,,23*7B
$GPGLL,4042.11210,N,07512.52816,W,024844.00,A,A*7D
$GPRMC,024845.00,A,4042.11204,N,07512.52827,W,0.031,,230214,,,A*66
$GPVTG,,T,,M,0.031,N,0.058,K,A*2C
$GPGGA,024845.00,4042.11204,N,07512.52827,W,1,08,1.34,107.8,M,-34.4,M,,*60
$GPGSA,A,3,01,03,08,07,09,11,13,23,,,,,2.40,1.34,1.99*04
$GPGSV,3,1,09,01,13,166,36,03,56,051,34,07,68,306,30,08,34,314,32*71
$GPGSV,3,2,09,09,29,314,31,11,38,162,42,13,32,215,34,23,10,190,35*73
$GPGSV,3,3,09,28,,,23*7B
$GPGLL,4042.11204,N,07512.52827,W,024845.00,A,A*7B
$GPRMC,024846.00,A,4042.11196,N,07512.52845,W,0.040,,230214,,,A*6F
$GPVTG,,T,,M,0.040,N,0.074,K,A*24
$GPGGA,024846.00,4042.11196,N,07512.52845,W,1,08,1.34,108.5,M,-34.4,M,,*6D
$GPGSA,A,3,01,03,08,07,09,11,13,23,,,,,2.40,1.34,1.99*04
$GPGSV,3,1,09,01,13,166,37,03,56,051,35,07,68,306,30,08,34,314,31*72
$GPGSV,3,2,09,09,29,314,32,11,38,162,42,13,32,215,33,23,10,190,35*77
$GPGSV,3,3,09,28,,,24*7C
$GPGLL,4042.11196,N,07512.52845,W,024846.00,A,A*74
$GPRMC,024847.00,A,4042.11191,N,07512.52856,W,0.021,,230214,,,A*6C
$GPVTG,,T,,M,0.021,N,0.039,K,A*2A
$GPGGA,024847.00,4042.11191,N,07512.52856,W,1,08,1.34,109.1,M,-34.4,M,,*6C
$GPGSA,A,3,01,03,08,07,09,11,13,23,,,,,2.40,1.34,1.99*04
$GPGSV,3,1,09,01,13,166,37,03,56,051,34,07,68,306,30,08,34,314,30*72
$GPGSV,3,2,09,09,29,314,31,11,38,162,42,13,32,215,34,23,10,190,36*70
$GPGSV,3,3,09,28,,,24*7C
$GPGLL,4042.11191,N,07512.52856,W,024847.00,A,A*70
$GPRMC,024848.00,A,4042.11188,N,07512.52866,W,0.008,,230214,,,A*63
$GPVTG,,T,,M,0.008,N,0.014,K,A*2E
$GPGGA,024848.00,4042.11188,N,07512.52866,W,1,08,1.34,109.6,M,-34.4,M,,*6F
$GPGSA,A,3,01,03,08,07,09,11,13,23,,,,,2.40,1.34,1.99*04
$GPGSV,3,1,09,01,13,166,37,03,56,051,34,07,68,306,28,08,34,314,30*7B
$GPGSV,3,2,09,09,29,314,31,11,38,162,42,13,32,215,34,23,10,190,36*70
$GPGSV,3,3,09,28,,,23*7B
$GPGLL,4042.11188,N,07512.52866,W,024848.00,A,A*74
$GPRMC,024849.00,A,4042.11184,N,07512.52879,W,0.062,,230214,,,A*6C
$GPVTG,,T,,M,0.062,N,0.115,K,A*22
$GPGGA,024849.00,4042.11184,N,07512.52879,W,1,08,1.34,110.1,M,-34.4,M,,*63
$GPGSA,A,3,01,03,08,07,09,11,13,23,,,,,2.40,1.34,1.99*04
$GPGSV,3,1,09,01,13,166,37,03,56,051,34,07,68,306,27,08,34,314,31*75
$GPGSV,3,2,09,09,29,314,32,11,38,162,42,13,32,215,33,23,10,190,35*77
$GPGSV,3,3,09,28,,,23*7B
$GPGLL,4042.11184,N,07512.52879,W,024849.00,A,A*77
$GPRMC,024850.00,A,4042.11182,N,07512.52895,W,0.117,,230214,,,A*63
$GPVTG,,T,,M,0.117,N,0.217,K,A*20
$GPGGA,024850.00,4042.11182,N,07512.52895,W,1,08,1.34,110.6,M,-34.4,M,,*68
$GPGSA,A,3,01,03,08,07,09,11,13,23,,,,,2.40,1.34,1.99*04
$GPGSV,3,1,09,01,13,166,37,03,56,051,34,07,68,306,26,08,34,314,31*74
$GPGSV,3,2,09,09,29,314,32,11,38,162,42,13,32,215,33,23,10,190,35*77
$GPGSV,3,3,09,28,,,22*7A
$GPGLL,4042.11182,N,07512.52895,W,024850.00,A,A*7B
$GPRMC,024851.00,A,4042.11181,N,07512.52906,W,0.020,,230214,,,A*6F
$GPVTG,,T,,M,0.020,N,0.038,K,A*2A
$GPGGA,024851.00,4042.11181,N,07512.52906,W,1,08,1.34,111.0,M,-34.4,M,,*66
$GPGSA,A,3,01,03,08,07,09,11,13,23,,,,,2.40,1.34,1.99*04
$GPGSV,3,1,09,01,13,166,37,03,56,051,33,07,68,306,26,08,34,314,31*73
$GPGSV,3,2,09,09,29,314,32,11,38,162,41,13,32,215,33,23,10,190,36*77
$GPGSV,3,3,09,28,,,22*7A
$GPGLL,4042.11181,N,07512.52906,W,024851.00,A,A*72
$GPRMC,024852.00,A,4042.11177,N,07512.52914,W,0.083,,230214,,,A*6F
$GPVTG,,T,,M,0.083,N,0.153,K,A*2F
$GPGGA,024852.00,4042.11177,N,07512.52914,W,1,08,1.34,111.4,M,-34.4,M,,*6B
$GPGSA,A,3,01,03,08,07,09,11,13,23,,,,,2.40,1.34,1.99*04
$GPGSV,3,1,09,01,13,166,37,03,56,051,34,07,68,306,26,08,34,314,31*74
$GPGSV,3,2,09,09,29,314,32,11,38,162,41,13,32,215,33,23,10,190,35*74
$GPGSV,3,3,09,28,,,21*79
$GPGLL,4042.11177,N,07512.52914,W,024852.00,A,A*7B
$GPRMC,024853.00,A,4042.11174,N,07512.52923,W,0.025,,230214,,,A*65
$GPVTG,,T,,M,0.025,N,0.045,K,A*25
$GPGGA,024853.00,4042.11174,N,07512.52923,W,1,08,1.34,111.8,M,-34.4,M,,*61
$GPGSA,A,3,01,03,08,07,09,11,13,23,,,,,2.40,1.34,1.99*04
$GPGSV,3,1,09,01,13,166,37,03,56,051,34,07,68,306,26,08,34,314,31*74
$GPGSV,3,2,09,09,29,314,32,11,38,162,42,13,32,215,33,23,10,190,34*76
$GPGSV,3,3,09,28,,,21*79
$GPGLL,4042.11174,N,07512.52923,W,024853.00,A,A*7D
$GPRMC,024854.00,A,4042.11173,N,07512.52930,W,0.019,,230214,,,A*68
$GPVTG,,T,,M,0.019,N,0.034,K,A*2C
$GPGGA,024854.00,4042.11173,N,07512.52930,W,1,08,1.34,112.0,M,-34.4,M,,*68
$GPGSA,A,3,01,03,08,07,09,11,13,23,,,,,2.40,1.34,1.99*04
$GPGSV,3,1,09,01,13,166,35,03,56,051,34,07,68,306,26,08,34,314,31*76
$GPGSV,3,2,09,09,29,314,32,11,38,162,40,13,32,215,34,23,10,190,35*72
$GPGSV,3,3,09,28,,,21*79
$GPGLL,4042.11173,N,07512.52930,W,024854.00,A,A*7F
$GPRMC,024855.00,A,4042.11177,N,07512.52935,W,0.035,,230214,,,A*66
$GPVTG,,T,,M,0.035,N,0.066,K,A*25
$GPGGA,024855.00,4042.11177,N,07512.52935,W,1,08,1.34,112.1,M,-34.4,M,,*69
$GPGSA,A,3,01,03,08,07,09,11,13,23,,,,,2.40,1.34,1.99*04
$GPGSV,3,1,09,01,13,166,35,03,56,051,34,07,68,306,26,08,34,314,30*77
$GPGSV,3,2,09,09,29,314,32,11,38,162,40,13,32,215,35,23,10,190,34*72
$GPGSV,3,3,09,28,,,21*79
$GPGLL,4042.11177,N,07512.52935,W,024855.00,A,A*7F
$GPRMC,024856.00,A,4042.11181,N,07512.52935,W,0.016,,230214,,,A*6D
$GPVTG,,T,,M,0.016,N,0.030,K,A*27
$GPGGA,024856.00,4042.11181,N,07512.52935,W,1,08,1.34,112.1,M,-34.4,M,,*63
$GPGSA,A,3,01,03,08,07,09,11,13,23,,,,,2.40,1.34,1.99*04
$GPGSV,3,1,09,01,13,166,35,03,56,051,34,07,68,306,26,08,34,314,30*77
$GPGSV,3,2,09,09,29,314,32,11,38,162,41,13,32,215,36,23,10,190,34*70
$GPGSV,3,3,09,28,,,21*79
$GPGLL,4042.11181,N,07512.52935,W,024856.00,A,A*75
$GPRMC,024857.00,A,4042.11185,N,07512.52934,W,0.030,,230214,,,A*6D
$GPVTG,,T,,M,0.030,N,0.056,K,A*23
$GPGGA,024857.00,4042.11185,N,07512.52934,W,1,08,1.34,112.0,M,-34.4,M,,*66
$GPGSA,A,3,01,03,08,07,09,11,13,23,,,,,2.40,1.34,1.99*04
$GPGSV,3,1,09,01,13,166,35,03,56,051,34,07,68,306,27,08,34,314,30*76
$GPGSV,3,2,09,09,29,314,32,11,38,162,41,13,32,215,36,23,10,190,34*70
$GPGSV,3,3,09,28,,,22*7A
$GPGLL,4042.11185,N,07512.52934,W,024857.00,A,A*71
$GPRMC,024858.00,A,4042.11188,N,07512.52941,W,0.013,,230214,,,A*6C
$GPVTG,,T,,M,0.013,N,0.025,K,A*26
$GPGGA,024858.00,4042.11188,N,07512.52941,W,1,08,1.34,112.1,M,-34.4,M,,*67
$GPGSA,A,3,01,03,08,07,09,11,13,23,,,,,2.40,1.34,1.99*04
$GPGSV,3,1,09,01,13,166,37,03,56,051,34,07,68,306,27,08,34,314,29*7C
$GPGSV,3,2,09,09,29,314,33,11,38,162,42,13,32,215,35,23,10,190,34*71
$GPGSV,3,3,09,28,,,23*7B
$GPGLL,4042.11188,N,07512.52941,W,024858.00,A,A*71
$GPRMC,024859.00,A,4042.11191,N,07512.52951,W,0.029,,230214,,,A*6D
$GPVTG,,T,,M,0.029,N,0.053,K,A*2E
$GPGGA,024859.00,4042.11191,N,07512.52951,W,1,08,1.34,112.2,M,-34.4,M,,*6C
$GPGSA,A,3,01,03,08,07,09,11,13,23,,,,,2.40,1.34,1.99*04
$GPGSV,3,1,09,01,13,166,37,03,56,051,34,07,68,306,28,08,34,314,29*73
$GPGSV,3,2,09,09,29,314,34,11,38,162,42,13,32,215,34,23,10,190,34*77
$GPGSV,3,3,09,28,,,24*7C
$GPGLL,4042.11191,N,07512.52951,W,024859.00,A,A*79
$GPRMC,024900.00,A,4042.11193,N,07512.52962,W,0.040,,230214,,,A*6D
$GPVTG,,T,,M,0.040,N,0.074,K,A*24
$GPGGA,024900.00,4042.11193,N,07512.52962,W,1,08,1.34,112.2,M,-34.4,M,,*63
$GPGSA,A,3,01,03,08,07,09,11,13,23,,,,,2.40,1.34,1.99*04
$GPGSV,3,1,09,01,13,166,37,03,56,051,34,07,68,306,28,08,34,314,29*73
$GPGSV,3,2,09,09,29,314,34,11,38,162,41,13,32,215,34,23,10,190,34*74
$GPGSV,3,3,09,28,,,24*7C
$GPGLL,4042.11193,N,07512.52962,W,024900.00,A,A*76
$GPRMC,024901.00,A,4042.11194,N,07512.52976,W,0.013,,230214,,,A*68
$GPVTG,,T,,M,0.013,N,0.024,K,A*27
$GPGGA,024901.00,4042.11194,N,07512.52976,W,1,08,1.34,112.4,M,-34.4,M,,*66
$GPGSA,A,3,01,03,08,07,09,11,13,23,,,,,2.40,1.34,1.99*04
$GPGSV,3,1,09,01,13,166,37,03,56,051,34,07,68,306,28,08,34,314,29*73
$GPGSV,3,2,09,09,29,314,34,11,38,162,42,13,32,215,33,23,10,190,34*70
$GPGSV,3,3,09,28,,,25*7D
$GPGLL,4042.11194,N,07512.52976,W,024901.00,A,A*75
$GPRMC,024902.00,A,4042.11196,N,07512.52987,W,0.059,,230214,,,A*69
$GPVTG,,T,,M,0.059,N,0.110,K,A*2F
$GPGGA,024902.00,4042.11196,N,07512.52987,W,1,08,1.34,112.4,M,-34.4,M,,*69
$GPGSA,A,3,01,03,08,07,09,11,13,23,,,,,2.40,1.34,1.99*04
$GPGSV,3,1,09,01,13,166,37,03,56,051,33,07,68,306,28,08,34,314,29*74
$GPGSV,3,2,09,09,29,314,34,11,38,162,42,13,32,215,33,23,10,190,33*77
$GPGSV,3,3,09,28,,,25*7D
$GPGLL,4042.11196,N,07512.52987,W,024902.00,A,A*7A
$GPRMC,024903.00,A,4042.11198,N,07512.52999,W,0.037,,230214,,,A*61
$GPVTG,,T,,M,0.037,N,0.069,K,A*28
$GPGGA,024903.00,4042.11198,N,07512.52999,W,1,08,1.34,112.4,M,-34.4,M,,*69
$GPGSA,A,3,01,03,08,07,09,11,13,23,,,,,2.40,1.34,1.99*04
$GPGSV,3,1,09,01,13,166,37,03,56,051,33,07,68,306,28,08,34,314,29*74
$GPGSV,3,2,09,09,29,314,34,11,38,162,42,13,32,215,33,23,10,190,32*76
$GPGSV,3,3,09,28,,,25*7D
$GPGLL,4042.11198,N,07512.52999,W,024903.00,A,A*7A
$GPRMC,024904.00,A,4042.11199,N,07512.53006,W,0.018,,230214,,,A*64
$GPVTG,,T,,M,0.018,N,0.033,K,A*2A
$GPGGA,024904.00,4042.11199,N,07512.53006,W,1,08,1.34,112.3,M,-34.4,M,,*66
$GPGSA,A,3,01,03,08,07,09,11,13,23,,,,,2.40,1.34,1.99*04
$GPGSV,3,1,09,01,13,166,37,03,56,051,33,07,68,306,28,08,34,314,28*75
$GPGSV,3,2,09,09,29,314,33,11,38,162,41,13,32,215,35,23,10,190,32*74
$GPGSV,3,3,09,28,,,25*7D
$GPGLL,4042.11199,N,07512.53006,W,024904.00,A,A*72
$GPRMC,024905.00,A,4042.11200,N,07512.53012,W,0.021,,230214,,,A*69
$GPVTG,,T,,M,0.021,N,0.039,K,A*2A
$GPGGA,024905.00,4042.11200,N,07512.53012,W,1,08,1.34,112.3,M,-34.4,M,,*61
$GPGSA,A,3,01,03,08,07,09,11,13,23,,,,,2.40,1.34,1.99*04
$GPGSV,3,1,09,01,13,166,35,03,56,051,33,07,68,306,28,08,34,314,27*78
$GPGSV,3,2,09,09,29,314,34,11,38,162,41,13,32,215,35,23,10,190,32*73
$GPGSV,3,3,09,28,,,25*7D
$GPGLL,4042.11200,N,07512.53012,W,024905.00,A,A*75
$GPRMC,024906.00,A,4042.11201,N,07512.53020,W,0.012,,230214,,,A*6A
$GPVTG,,T,,M,0.012,N,0.022,K,A*20
$GPGGA,024906.00,4042.11201,N,07512.53020,W,1,08,1.34,112.3,M,-34.4,M,,*62
$GPGSA,A,3,01,03,08,07,09,11,13,23,,,,,2.40,1.34,1.99*04
$GPGSV,3,1,09,01,13,166,35,03,56,051,33,07,68,306,29,08,34,314,27*79
$GPGSV,3,2,09,09,29,314,34,11,38,162,41,13,32,215,34,23,10,190,33*73
$GPGSV,3,3,09,28,,,25*7D
$GPGLL,4042.11201,N,07512.53020,W,024906.00,A,A*76
$GPRMC,024907.00,A,4042.11203,N,07512.53027,W,0.033,,230214,,,A*6D
$GPVTG,,T,,M,0.033,N,0.060,K,A*25
$GPGGA,024907.00,4042.11203,N,07512.53027,W,1,08,1.34,112.3,M,-34.4,M,,*66
$GPGSA,A,3,01,03,08,07,09,11,13,23,,,,,2.40,1.34,1.99*04
$GPGSV,3,1,09,01,13,166,36,03,56,051,32,07,68,306,30,08,34,314,26*72
$GPGSV,3,2,09,09,29,314,34,11,38,162,41,13,32,215,34,23,10,190,33*73
$GPGSV,3,3,09,28,,,25*7D
$GPGLL,4042.11203,N,07512.53027,W,024907.00,A,A*72
$GPRMC,024908.00,A,4042.11203,N,07512.53035,W,0.019,,230214,,,A*69
$GPVTG,,T,,M,0.019,N,0.036,K,A*2E
$GPGGA,024908.00,4042.11203,N,07512.53035,W,1,08,1.34,112.3,M,-34.4,M,,*6A
$GPGSA,A,3,01,03,08,07,09,11,13,23,,,,,2.40,1.34,1.99*04
$GPGSV,3,1,09,01,13,166,36,03,56,051,33,07,68,306,30,08,34,314,25*70
$GPGSV,3,2,09,09,29,314,34,11,38,162,41,13,32,215,34,23,10,190,33*73
$GPGSV,3,3,09,28,,,26*7E
$GPGLL,4042.11203,N,07512.53035,W,024908.00,A,A*7E
$GPRMC,024909.00,A,4042.11200,N,07512.53038,W,0.017,,230214,,,A*68
$GPVTG,,T,,M,0.017,N,0.032,K,A*24
$GPGGA,024909.00,4042.11200,N,07512.53038,W,1,08,1.41,112.3,M,-34.4,M,,*67
$GPGSA,A,3,01,03,08,07,09,11,13,23,,,,,2.49,1.41,2.06*0A
$GPGSV,3,1,09,01,13,166,36,03,56,051,33,07,68,306,30,08,34,314,24*71
$GPGSV,3,2,09,09,29,314,34,11,38,162,41,13,32,215,33,23,10,190,33*74
$GPGSV,3,3,09,28,,,25*7D
$GPGLL,4042.11200,N,07512.53038,W,024909.00,A,A*71
$GPRMC,024910.00,A,4042.11196,N,07512.53038,W,0.047,,230214,,,A*69
$GPVTG,,T,,M,0.047,N,0.087,K,A*2F
$GPGGA,024910.00,4042.11196,N,07512.53038,W,1,08,1.41,112.3,M,-34.4,M,,*63
$GPGSA,A,3,01,03,08,07,09,11,13,23,,,,,2.49,1.41,2.06*0A
$GPGSV,3,1,09,01,13,166,38,03,56,051,33,07,68,306,31,08,34,314,25*7F
$GPGSV,3,2,09,09,29,314,33,11,38,162,41,13,32,215,33,23,10,190,32*72
$GPGSV,3,3,09,28,,,24*7C
$GPGLL,4042.11196,N,07512.53038,W,024910.00,A,A*75
$GPRMC,024911.00,A,4042.11191,N,07512.53040,W,0.025,,230214,,,A*64
$GPVTG,,T,,M,0.025,N,0.047,K,A*27
$GPGGA,024911.00,4042.11191,N,07512.53040,W,1,08,1.41,112.5,M,-34.4,M,,*6C
$GPGSA,A,3,01,03,08,07,09,11,13,23,,,,,2.49,1.41,2.06*0A
$GPGSV,3,1,09,01,13,166,38,03,56,051,32,07,68,306,31,08,34,314,25*7E
$GPGSV,3,2,09,09,29,314,34,11,38,162,42,13,32,215,32,23,10,190,31*74
$GPGSV,3,3,09,28,,,23*7B
$GPGLL,4042.11191,N,07512.53040,W,024911.00,A,A*7C
$GPRMC,024912.00,A,4042.11192,N,07512.53043,W,0.120,,230214,,,A*63
$GPVTG,,T,,M,0.120,N,0.222,K,A*22
$GPGGA,024912.00,4042.11192,N,07512.53043,W,1,08,1.34,112.4,M,-34.4,M,,*6C
$GPGSA,A,3,01,03,08,07,09,11,13,23,,,,,2.40,1.34,1.99*04
$GPGSV,3,1,09,01,13,166,38,03,56,051,32,07,68,306,32,08,34,314,25*7D
$GPGSV,3,2,09,09,29,314,33,11,38,162,42,13,32,215,32,23,10,190,31*73
$GPGSV,3,3,09,28,,,22*7A
$GPGLL,4042.11192,N,07512.53043,W,024912.00,A,A*7F
$GPRMC,024913.00,A,4042.11192,N,07512.53043,W,0.082,,230214,,,A*6B
$GPVTG,,T,,M,0.082,N,0.152,K,A*2F
$GPGGA,024913.00,4042.11192,N,07512.53043,W,1,08,1.34,112.3,M,-34.4,M,,*6A
$GPGSA,A,3,01,03,08,07,09,11,13,23,,,,,2.40,1.34,1.99*04
$GPGSV,3,1,09,01,13,166,37,03,56,051,31,07,68,306,32,08,34,314,24*70
$GPGSV,3,2,09,09,29,314,33,11,38,162,41,13,32,215,32,23,10,190,30*71
$GPGSV,3,3,09,28,,,22*7A
$GPGLL,4042.11192,N,07512.53043,W,024913.00,A,A*7E
$GPRMC,024914.00,A,4042.11191,N,07512.53034,W,0.177,,230214,,,A*64
$GPVTG,,T,,M,0.177,N,0.328,K,A*2B
$GPGGA,024914.00,4042.11191,N,07512.53034,W,1,08,1.41,112.2,M,-34.4,M,,*6D
$GPGSA,A,3,01,03,08,07,09,11,13,23,,,,,2.49,1.41,2.06*0A
$GPGSV,3,1,09,01,13,166,37,03,56,051,31,07,68,306,33,08,34,314,23*76
$GPGSV,3,2,09,09,29,314,33,11,38,162,41,13,32,215,31,23,10,190,30*72
$GPGSV,3,3,09,28,,,22*7A
$GPGLL,4042.11191,N,07512.53034,W,024914.00,A,A*7A
$GPRMC,024915.00,A,4042.11187,N,07512.53025,W,0.055,,230214,,,A*63
$GPVTG,,T,,M,0.055,N,0.102,K,A*20
$GPGGA,024915.00,4042.11187,N,07512.53025,W,1,08,1.41,112.1,M,-34.4,M,,*68
$GPGSA,A,3,01,03,08,07,09,11,13,23,,,,,2.49,1.41,2.06*0A
$GPGSV,3,1,09,01,13,166,37,03,56,051,31,07,68,306,33,08,34,314,22*77
$GPGSV,3,2,09,09,29,314,33,11,38,162,41,13,32,215,32,23,10,190,30*71
$GPGSV,3,3,09,28,,,21*79
$GPGLL,4042.11187,N,07512.53025,W,024915.00,A,A*7C
$GPRMC,024916.00,A,4042.11178,N,07512.53019,W,0.035,,230214,,,A*69
$GPVTG,,T,,M,0.035,N,0.065,K,A*26
$GPGGA,024916.00,4042.11178,N,07512.53019,W,1,08,1.41,112.2,M,-34.4,M,,*67
$GPGSA,A,3,01,03,08,07,09,11,13,23,,,,,2.49,1.41,2.06*0A
$GPGSV,3,1,09,01,13,166,37,03,56,051,32,07,68,306,33,08,34,314,22*74
$GPGSV,3,2,09,09,29,314,32,11,38,162,41,13,32,215,31,23,10,190,31*72
$GPGSV,3,3,09,28,,,21*79
$GPGLL,4042.11178,N,07512.53019,W,024916.00,A,A*70
$GPRMC,024917.00,A,4042.11171,N,07512.53012,W,0.024,,230214,,,A*6A
$GPVTG,,T,,M,0.024,N,0.044,K,A*25
$GPGGA,024917.00,4042.11171,N,07512.53012,W,1,08,1.41,112.2,M,-34.4,M,,*64
$GPGSA,A,3,01,03,08,07,09,11,13,23,,,,,2.49,1.41,2.06*0A
$GPGSV,3,1,09,01,13,166,37,03,56,051,31,07,68,306,34,08,34,314,22*70
$GPGSV,3,2,09,09,29,314,32,11,38,162,41,13,32,215,31,23,10,190,31*72
$GPGSV,3,3,09,28,,,20*78
$GPGLL,4042.11171,N,07512.53012,W,024917.00,A,A*73
$GPRMC,024918.00,A,4042.11167,N,07512.53003,W,0.071,,230214,,,A*62
$GPVTG,,T,,M,0.071,N,0.132,K,A*25
$GPGGA,024918.00,4042.11167,N,07512.53003,W,1,08,1.41,112.1,M,-34.4,M,,*6F
$GPGSA,A,3,01,03,08,07,09,11,13,23,,,,,2.49,1.41,2.06*0A
$GPGSV,3,1,09,01,13,166,37,03,56,051,31,07,68,306,34,08,34,314,21*73
$GPGSV,3,2,09,09,29,314,32,11,38,162,41,13,32,215,31,23,10,190,32*71
$GPGSV,3,3,09,28,,,18*73
$GPGLL,4042.11167,N,07512.53003,W,024918.00,A,A*7B
$GPRMC,024919.00,A,4042.11161,N,07512.52994,W,0.029,,230214,,,A*6E
$GPVTG,,T,,M,0.029,N,0.054,K,A*29
$GPGGA,024919.00,4042.11161,N,07512.52994,W,1,08,1.41,112.0,M,-34.4,M,,*6F
$GPGSA,A,3,01,03,08,07,09,11,13,23,,,,,2.49,1.41,2.06*0A
$GPGSV,3,1,09,01,13,166,38,03,56,051,31,07,68,306,35,08,34,314,21*7D
$GPGSV,3,2,09,09,29,314,31,11,38,162,41,13,32,215,32,23,10,190,32*71
$GPGSV,3,3,09,28,,,16*7D
$GPGLL,4042.11161,N,07512.52994,W,024919.00,A,A*7A
$GPRMC,024920.00,A,4042.11157,N,07512.52988,W,0.017,,230214,,,A*61
$GPVTG,,T,,M,0.017,N,0.032,K,A*24
$GPGGA,024920.00,4042.11157,N,07512.52988,W,1,08,1.41,111.8,M,-34.4,M,,*66
$GPGSA,A,3,01,03,08,07,09,11,13,23,,,,,2.50,1.41,2.06*02
$GPGSV,3,1,09,01,13,166,38,03,56,051,31,07,68,306,35,08,34,314,22*7E
$GPGSV,3,2,09,09,29,314,31,11,38,162,41,13,32,215,31,23,10,190,33*73
$GPGSV,3,3,09,28,,,16*7D
$GPGLL,4042.11157,N,07512.52988,W,024920.00,A,A*78
$GPRMC,024921.00,A,4042.11154,N,07512.52985,W,0.015,,230214,,,A*6C
$GPVTG,,T,,M,0.015,N,0.027,K,A*22
$GPGGA,024921.00,4042.11154,N,07512.52985,W,1,08,1.41,111.6,M,-34.4,M,,*67
$GPGSA,A,3,01,03,08,07,09,11,13,23,,,,,2.50,1.41,2.06*02
$GPGSV,3,1,09,01,13,166,38,03,56,051,31,07,68,306,35,08,34,314,22*7E
$GPGSV,3,2,09,09,29,314,31,11,38,162,41,13,32,215,30,23,10,190,33*72
$GPGSV,3,3,09,28,,,16*7D
$GPGLL,4042.11154,N,07512.52985,W,024921.00,A,A*77
$GPRMC,024922.00,A,4042.11152,N,07512.52975,W,0.065,,230214,,,A*61
$GPVTG,,T,,M,0.065,N,0.120,K,A*23
$GPGGA,024922.00,4042.11152,N,07512.52975,W,1,08,1.41,111.3,M,-34.4,M,,*68
$GPGSA,A,3,01,03,08,07,09,11,13,23,,,,,2.50,1.41,2.06*02
$GPGSV,3,1,09,01,13,166,38,03,56,051,32,07,68,306,36,08,34,314,22*7E
$GPGSV,3,2,09,09,29,314,31,11,38,162,42,13,32,215,29,23,10,190,33*79
$GPGSV,3,3,09,28,,,16*7D
$GPGLL,4042.11152,N,07512.52975,W,024922.00,A,A*7D
$GPRMC,024923.00,A,4042.11149,N,07512.52971,W,0.109,,230214,,,A*65
$GPVTG,,T,,M,0.109,N,0.201,K,A*28
$GPGGA,024923.00,4042.11149,N,07512.52971,W,1,08,1.41,111.0,M,-34.4,M,,*64
$GPGSA,A,3,01,03,08,07,09,11,13,23,,,,,2.50,1.41,2.06*02
$GPGSV,3,1,09,01,13,166,38,03,56,051,32,07,68,306,36,08,34,314,22*7E
$GPGSV,3,2,09,09,29,314,31,11,38,162,41,13,32,215,28,23,10,190,33*7B
$GPGSV,3,3,09,28,,,17*7C
$GPGLL,4042.11149,N,07512.52971,W,024923.00,A,A*72
$GPRMC,024924.00,A,4042.11152,N,07512.52968,W,0.109,,230214,,,A*60
$GPVTG,,T,,M,0.109,N,0.203,K,A*2A
$GPGGA,024924.00,4042.11152,N,07512.52968,W,1,08,1.34,110.5,M,-34.4,M,,*67
$GPGSA,A,3,01,03,08,07,09,11,13,23,,,,,2.40,1.34,1.99*04
$GPGSV,3,1,09,01,13,166,38,03,56,051,32,07,68,306,36,08,34,314,22*7E
$GPGSV,3,2,09,09,29,314,31,11,38,162,42,13,32,215,29,23,10,190,33*79
$GPGSV,3,3,09,28,,,17*7C
$GPGLL,4042.11152,N,07512.52968,W,024924.00,A,A*77
$GPRMC,024925.00,A,4042.11149,N,07512.52966,W,0.041,,230214,,,A*68
$GPVTG,,T,,M,0.041,N,0.075,K,A*24
$GPGGA,024925.00,4042.11149,N,07512.52966,W,1,08,1.34,110.3,M,-34.4,M,,*64
$GPGSA,A,3,01,03,08,07,09,11,13,23,,,,,2.40,1.34,1.99*04
$GPGSV,3,1,09,01,13,166,38,03,56,051,32,07,68,306,36,08,34,314,22*7E
$GPGSV,3,2,09,09,29,314,30,11,38,162,42,13,32,215,29,23,10,190,33*78
$GPGSV,3,3,09,28,,,18*73
$GPGLL,4042.11149,N,07512.52966,W,024925.00,A,A*72
$GPRMC,024926.00,A,4042.11148,N,07512.52963,W,0.020,,230214,,,A*68
$GPVTG,,T,,M,0.020,N,0.036,K,A*24
$GPGGA,024926.00,4042.11148,N,07512.52963,W,1,08,1.34,110.0,M,-34.4,M,,*60
$GPGSA,A,3,01,03,08,07,09,11,13,23,,,,,2.40,1.34,1.99*04
$GPGSV,3,1,09,01,13,166,38,03,56,051,32,07,68,306,36,08,34,314,23*7F
$GPGSV,3,2,09,09,29,314,30,11,38,162,42,13,32,215,29,23,10,190,33*78
$GPGSV,3,3,09,28,,,18*73
$GPGLL,4042.11148,N,07512.52963,W,024926.00,A,A*75
$GPRMC,024927.00,A,4042.11145,N,07512.52966,W,0.123,,230214,,,A*63
$GPVTG,,T,,M,0.123,N,0.228,K,A*2B
$GPGGA,024927.00,4042.11145,N,07512.52966,W,1,08,1.34,109.8,M,-34.4,M,,*69
$GPGSA,A,3,01,03,08,07,09,11,13,23,,,,,2.40,1.34,1.99*04
$GPGSV,3,1,09,01,13,166,38,03,56,051,32,07,68,306,36,08,34,314,23*7F
$GPGSV,3,2,09,09,29,314,30,11,38,162,41,13,32,215,27,23,10,190,34*72
$GPGSV,3,3,09,28,,,19*72
$GPGLL,4042.11145,N,07512.52966,W,024927.00,A,A*7C
$GPRMC,024928.00,A,4042.11143,N,07512.52967,W,0.070,,230214,,,A*6C
$GPVTG,,T,,M,0.070,N,0.129,K,A*2E
$GPGGA,024928.00,4042.11143,N,07512.52967,W,1,08,1.34,109.6,M,-34.4,M,,*6F
$GPGSA,A,3,01,03,08,07,09,11,13,23,,,,,2.40,1.34,1.99*04
$GPGSV,3,1,09,01,13,166,38,03,56,051,33,07,68,306,36,08,34,314,25*78
$GPGSV,3,2,09,09,29,314,29,11,38,162,41,13,32,215,27,23,10,190,33*7D
$GPGSV,3,3,09,28,,,19*72
$GPGLL,4042.11143,N,07512.52967,W,024928.00,A,A*74
$GPRMC,024929.00,A,4042.11133,N,07512.52976,W,0.009,,230214,,,A*64
$GPVTG,,T,,M,0.009,N,0.017,K,A*2C
$GPGGA,024929.00,4042.11133,N,07512.52976,W,1,08,1.34,109.8,M,-34.4,M,,*67
$GPGSA,A,3,01,03,08,07,09,11,13,23,,,,,2.40,1.34,1.99*04
$GPGSV,3,1,09,01,13,166,39,03,56,051,34,07,68,306,35,08,34,314,26*7E
$GPGSV,3,2,09,09,29,314,29,11,38,162,41,13,32,215,26,23,10,190,34*7B
$GPGSV,3,3,09,28,,,19*72
$GPGLL,4042.11133,N,07512.52976,W,024929.00,A,A*72
$GPRMC,024930.00,A,4042.11126,N,07512.52983,W,0.022,,230214,,,A*6B
$GPVTG,,T,,M,0.022,N,0.041,K,A*26
$GPGGA,024930.00,4042.11126,N,07512.52983,W,1,08,1.34,110.0,M,-34.4,M,,*61
$GPGSA,A,3,01,03,08,07,09,11,13,23,,,,,2.40,1.34,1.99*04
$GPGSV,3,1,09,01,13,166,39,03,56,051,33,07,68,306,35,08,34,314,27*78
$GPGSV,3,2,09,09,29,314,28,11,38,162,41,13,32,215,25,23,10,190,35*78
$GPGSV,3,3,09,28,,,19*72
$GPGLL,4042.11126,N,07512.52983,W,024930.00,A,A*74
$GPRMC,024931.00,A,4042.11117,N,07512.53003,W,0.329,,230214,,,A*60
$GPVTG,,T,,M,0.329,N,0.610,K,A*2C
$GPGGA,024931.00,4042.11117,N,07512.53003,W,1,08,1.34,110.3,M,-34.4,M,,*61
$GPGSA,A,3,01,03,08,07,09,11,13,23,,,,,2.40,1.34,1.99*04
$GPGSV,3,1,09,01,13,166,39,03,56,051,34,07,68,306,35,08,34,314,27*7F
$GPGSV,3,2,09,09,29,314,29,11,38,162,41,13,32,215,25,23,10,190,35*79
$GPGSV,3,3,09,28,,,20*78
$GPGLL,4042.11117,N,07512.53003,W,024931.00,A,A*77
$GPRMC,024932.00,A,4042.11110,N,07512.53012,W,0.093,,230214,,,A*66
$GPVTG,,T,,M,0.093,N,0.172,K,A*2D
$GPGGA,024932.00,4042.11110,N,07512.53012,W,1,08,1.34,110.6,M,-34.4,M,,*60
$GPGSA,A,3,01,03,08,07,09,11,13,23,,,,,2.40,1.34,1.99*04
$GPGSV,3,1,09,01,13,166,39,03,56,051,33,07,68,306,35,08,34,314,28*77
$GPGSV,3,2,09,09,29,314,28,11,38,162,41,13,32,215,24,23,10,190,35*79
$GPGSV,3,3,09,28,,,20*78
$GPGLL,4042.11110,N,07512.53012,W,024932.00,A,A*73
$GPRMC,024933.00,A,4042.11101,N,07512.53014,W,0.104,,230214,,,A*6E
$GPVTG,,T,,M,0.104,N,0.193,K,A*2D
$GPGGA,024933.00,4042.11101,N,07512.53014,W,1,08,1.34,110.9,M,-34.4,M,,*68
$GPGSA,A,3,01,03,08,07,09,11,13,23,,,,,2.40,1.34,1.99*04
$GPGSV,3,1,09,01,13,166,39,03,56,051,33,07,68,306,36,08,34,314,28*74
$GPGSV,3,2,09,09,29,314,28,11,38,162,41,13,32,215,24,23,10,190,35*79
$GPGSV,3,3,09,28,,,19*72
$GPGLL,4042.11101,N,07512.53014,W,024933.00,A,A*74
$GPRMC,024934.00,A,4042.11095,N,07512.53018,W,0.044,,230214,,,A*6C
$GPVTG,,T,,M,0.044,N,0.082,K,A*29
$GPGGA,024934.00,4042.11095,N,07512.53018,W,1,08,1.34,111.0,M,-34.4,M,,*67
$GPGSA,A,3,01,03,08,07,09,11,13,23,,,,,2.40,1.34,1.99*04
$GPGSV,3,1,09,01,13,166,38,03,56,051,33,07,68,306,36,08,34,314,29*74
$GPGSV,3,2,09,09,29,314,29,11,38,162,41,13,32,215,25,23,10,190,34*78
$GPGSV,3,3,09,28,,,19*72
$GPGLL,4042.11095,N,07512.53018,W,024934.00,A,A*73
$GPRMC,024935.00,A,4042.11089,N,07512.53022,W,0.044,,230214,,,A*69
$GPVTG,,T,,M,0.044,N,0.081,K,A*2A
$GPGGA,024935.00,4042.11089,N,07512.53022,W,1,08,1.34,111.2,M,-34.4,M,,*60
$GPGSA,A,3,01,03,08,07,09,11,13,23,,,,,2.40,1.34,1.99*04
$GPGSV,3,1,09,01,13,166,38,03,56,051,33,07,68,306,36,08,34,314,30*7C
$GPGSV,3,2,09,09,29,314,28,11,38,162,41,13,32,215,26,23,10,190,35*7B
$GPGSV,3,3,09,28,,,19*72
$GPGLL,4042.11089,N,07512.53022,W,024935.00,A,A*76
$GPRMC,024936.00,A,4042.11086,N,07512.53026,W,0.026,,230214,,,A*65
$GPVTG,,T,,M,0.026,N,0.047,K,A*24
$GPGGA,024936.00,4042.11086,N,07512.53026,W,1,08,1.34,111.4,M,-34.4,M,,*6E
$GPGSA,A,3,01,03,08,07,09,11,13,23,,,,,2.40,1.34,1.99*04
$GPGSV,3,1,09,01,13,166,38,03,56,051,33,07,68,306,36,08,34,314,30*7C
$GPGSV,3,2,09,09,29,314,28,11,38,162,41,13,32,215,25,23,10,190,35*78
$GPGSV,3,3,09,28,,,19*72
$GPGLL,4042.11086,N,07512.53026,W,024936.00,A,A*7E
$GPRMC,024937.00,A,4042.11084,N,07512.53030,W,0.038,,230214,,,A*6E
$GPVTG,,T,,M,0.038,N,0.071,K,A*2E
$GPGGA,024937.00,4042.11084,N,07512.53030,W,1,08,1.34,111.5,M,-34.4,M,,*6B
$GPGSA,A,3,01,03,08,07,09,11,13,23,,,,,2.40,1.34,1.99*04
$GPGSV,3,1,09,01,13,166,38,03,56,051,33,07,68,306,36,08,34,314,30*7C
$GPGSV,3,2,09,09,29,314,28,11,38,162,41,13,32,215,24,23,10,190,35*79
$GPGSV,3,3,09,28,,,18*73
$GPGLL,4042.11084,N,07512.53030,W,024937.00,A,A*7A
$GPRMC,024938.00,A,4042.11084,N,07512.53032,W,0.037,,230214,,,A*6C
$GPVTG,,T,,M,0.037,N,0.068,K,A*29
$GPGGA,024938.00,4042.11084,N,07512.53032,W,1,08,1.34,111.5,M,-34.4,M,,*66
$GPGSA,A,3,01,03,08,07,09,11,13,23,,,,,2.40,1.34,1.99*04
$GPGSV,3,1,09,01,13,166,38,03,56,051,32,07,68,306,36,08,34,314,30*7D
$GPGSV,3,2,09,09,29,314,28,11,38,162,41,13,32,215,24,23,10,190,35*79
$GPGSV,3,3,09,28,,,18*73
$GPGLL,4042.11084,N,07512.53032,W,024938.00,A,A*77
$GPRMC,024939.00,A,4042.11083,N,07512.53037,W,0.053,,230214,,,A*6D
$GPVTG,,T,,M,0.053,N,0.098,K,A*24
$GPGGA,024939.00,4042.11083,N,07512.53037,W,1,08,1.34,111.5,M,-34.4,M,,*65
$GPGSA,A,3,01,03,08,07,09,11,13,23,,,,,2.40,1.34,1.99*04
$GPGSV,3,1,09,01,13,166,38,03,56,051,32,07,68,306,36,08,34,314,31*7C
$GPGSV,3,2,09,09,29,314,28,11,38,162,41,13,32,215,25,23,10,190,35*78
$GPGSV,3,3,09,28,,,18*73
$GPGLL,4042.11083,N,07512.53037,W,024939.00,A,A*74
$GPRMC,024940.00,A,4042.11080,N,07512.53045,W,0.043,,230214,,,A*64
$GPVTG,,T,,M,0.043,N,0.080,K,A*2C
$GPGGA,024940.00,4042.11080,N,07512.53045,W,1,08,1.34,111.8,M,-34.4,M,,*60
$GPGSA,A,3,01,03,08,07,09,11,13,23,,,,,2.40,1.34,1.99*04
$GPGSV,3,1,09,01,13,166,38,03,56,051,33,07,68,306,35,08,34,314,32*7D
$GPGSV,3,2,09,09,29,314,28,11,38,162,40,13,32,215,24,23,10,190,35*78
$GPGSV,3,3,09,28,,,18*73
$GPGLL,4042.11080,N,07512.53045,W,024940.00,A,A*7C
$GPRMC,024941.00,A,4042.11076,N,07512.53054,W,0.019,,230214,,,A*63
$GPVTG,,T,,M,0.019,N,0.035,K,A*2D
$GPGGA,024941.00,4042.11076,N,07512.53054,W,1,08,1.34,112.0,M,-34.4,M,,*63
$GPGSA,A,3,01,03,08,07,09,11,13,23,,,,,2.40,1.34,1.99*04
$GPGSV,3,1,09,01,13,166,38,03,56,051,33,07,68,306,35,08,34,314,32*7D
$GPGSV,3,2,09,09,29,314,29,11,38,162,40,13,32,215,23,23,10,190,34*7F
$GPGSV,3,3,09,28,,,17*7C
$GPGLL,4042.11076,N,07512.53054,W,024941.00,A,A*74
$GPRMC,024942.00,A,4042.11071,N,07512.53063,W,0.004,,230214,,,A*6F
$GPVTG,,T,,M,0.004,N,0.007,K,A*20
$GPGGA,024942.00,4042.11071,N,07512.53063,W,1,08,1.34,112.3,M,-34.4,M,,*60
$GPGSA,A,3,01,03,08,07,09,11,13,23,,,,,2.40,1.34,1.99*04
$GPGSV,3,1,09,01,13,166,39,03,56,051,32,07,68,306,35,08,34,314,32*7D
$GPGSV,3,2,09,09,29,314,29,11,38,162,40,13,32,215,23,23,10,190,34*7F
$GPGSV,3,3,09,28,,,18*73
$GPGLL,4042.11071,N,07512.53063,W,024942.00,A,A*74
$GPRMC,024943.00,A,4042.11071,N,07512.53076,W,0.220,,230214,,,A*6E
$GPVTG,,T,,M,0.220,N,0.408,K,A*2F
$GPGGA,024943.00,4042.11071,N,07512.53076,W,1,08,1.34,112.5,M,-34.4,M,,*63
$GPGSA,A,3,01,03,08,07,09,11,13,23,,,,,2.40,1.34,1.99*04
$GPGSV,3,1,09,01,13,166,39,03,56,051,32,07,68,306,35,08,34,314,32*7D
$GPGSV,3,2,09,09,29,314,30,11,38,162,40,13,32,215,23,23,10,190,35*76
$GPGSV,3,3,09,28,,,18*73
$GPGLL,4042.11071,N,07512.53076,W,024943.00,A,A*71
$GPRMC,024944.00,A,4042.11070,N,07512.53092,W,0.269,,230214,,,A*6F
$GPVTG,,T,,M,0.269,N,0.499,K,A*2A
$GPGGA,024944.00,4042.11070,N,07512.53092,W,1,08,1.34,112.5,M,-34.4,M,,*6F
$GPGSA,A,3,01,03,08,07,09,11,13,23,,,,,2.40,1.34,1.99*04
$GPGSV,3,1,09,01,13,166,39,03,55,051,32,07,68,306,35,08,34,314,32*7E
$GPGSV,3,2,09,09,29,314,30,11,38,162,40,13,32,215,22,23,10,190,34*76
$GPGSV,3,3,09,28,,,16*7D
$GPGLL,4042.11070,N,07512.53092,W,024944.00,A,A*7D
$GPRMC,024945.00,A,4042.11061,N,07512.53100,W,0.261,,230214,,,A*6C
$GPVTG,,T,,M,0.261,N,0.483,K,A*29
$GPGGA,024945.00,4042.11061,N,07512.53100,W,1,08,1.34,112.9,M,-34.4,M,,*68
$GPGSA,A,3,01,03,08,07,09,11,13,23,,,,,2.40,1.34,1.99*04
$GPGSV,3,1,09,01,13,166,39,03,55,051,32,07,68,306,34,08,34,314,32*7F
$GPGSV,3,2,09,09,29,314,30,11,38,162,40,13,32,215,22,23,10,190,34*76
$GPGSV,3,3,09,28,,,15*7E
$GPGLL,4042.11061,N,07512.53100,W,024945.00,A,A*76
$GPRMC,024946.00,A,4042.11051,N,07512.53107,W,0.055,,230214,,,A*6E
$GPVTG,,T,,M,0.055,N,0.101,K,A*23
$GPGGA,024946.00,4042.11051,N,07512.53107,W,1,08,1.34,113.4,M,-34.4,M,,*63
$GPGSA,A,3,01,03,08,07,09,11,13,23,,,,,2.40,1.34,1.99*04
$GPGSV,3,1,09,01,13,166,39,03,55,051,32,07,68,306,34,08,34,314,32*7F
$GPGSV,3,2,09,09,29,314,30,11,38,162,40,13,32,215,22,23,10,190,34*76
$GPGSV,3,3,09,28,,,16*7D
$GPGLL,4042.11051,N,07512.53107,W,024946.00,A,A*71
$GPRMC,024947.00,A,4042.11043,N,07512.53117,W,0.056,,230214,,,A*6E
$GPVTG,,T,,M,0.056,N,0.104,K,A*25
$GPGGA,024947.00,4042.11043,N,07512.53117,W,1,08,1.34,113.8,M,-34.4,M,,*6C
$GPGSA,A,3,01,03,08,07,09,11,13,23,,,,,2.40,1.34,1.99*04
$GPGSV,3,1,09,01,13,166,39,03,55,051,31,07,68,306,34,08,34,314,33*7D
$GPGSV,3,2,09,09,29,314,31,11,38,162,40,13,32,215,22,23,10,190,34*77
$GPGSV,3,3,09,28,,,17*7C
$GPGLL,4042.11043,N,07512.53117,W,024947.00,A,A*72
$GPRMC,024948.00,A,4042.11039,N,07512.53140,W,0.538,,230214,,,A*63
$GPVTG,,T,,M,0.538,N,0.996,K,A*2B
$GPGGA,024948.00,4042.11039,N,07512.53140,W,1,08,1.34,114.1,M,-34.4,M,,*62
$GPGSA,A,3,01,03,08,07,09,11,13,23,,,,,2.40,1.34,1.99*04
$GPGSV,3,1,09,01,13,166,39,03,55,051,31,07,69,305,33,08,34,314,33*78
$GPGSV,3,2,09,09,29,314,31,11,38,162,40,13,32,215,23,23,10,190,34*76
$GPGSV,3,3,09,28,,,17*7C
$GPGLL,4042.11039,N,07512.53140,W,024948.00,A,A*72
$GPRMC,024949.00,A,4042.11027,N,07512.53154,W,0.228,,230214,,,A*6E
$GPVTG,,T,,M,0.228,N,0.422,K,A*2F
$GPGGA,024949.00,4042.11027,N,07512.53154,W,1,08,1.34,114.6,M,-34.4,M,,*6E
$GPGSA,A,3,01,03,08,07,09,11,13,23,,,,,2.40,1.34,1.99*04
$GPGSV,3,1,09,01,13,166,39,03,55,051,30,07,69,305,33,08,34,314,33*79
$GPGSV,3,2,09,09,29,314,31,11,38,162,40,13,32,215,22,23,10,190,33*70
$GPGSV,3,3,09,28,,,18*73
$GPGLL,4042.11027,N,07512.53154,W,024949.00,A,A*79
$GPRMC,024950.00,A,4042.11019,N,07512.53159,W,0.074,,230214,,,A*6D
$GPVTG,,T,,M,0.074,N,0.138,K,A*2A
$GPGGA,024950.00,4042.11019,N,07512.53159,W,1,08,1.34,115.1,M,-34.4,M,,*60
$GPGSA,A,3,01,03,08,07,09,11,13,23,,,,,2.40,1.34,1.99*04
$GPGSV,3,1,09,01,13,166,39,03,55,051,29,07,69,305,33,08,34,314,33*71
$GPGSV,3,2,09,09,29,314,31,11,38,162,40,13,32,215,22,23,10,190,33*70
$GPGSV,3,3,09,28,,,17*7C
$GPGLL,4042.11019,N,07512.53159,W,024950.00,A,A*71
$GPRMC,024951.00,A,4042.11016,N,07512.53164,W,0.036,,230214,,,A*6B
$GPVTG,,T,,M,0.036,N,0.067,K,A*27
$GPGGA,024951.00,4042.11016,N,07512.53164,W,1,08,1.34,115.5,M,-34.4,M,,*64
$GPGSA,A,3,01,03,08,07,09,11,13,23,,,,,2.40,1.34,1.99*04
$GPGSV,3,1,09,01,13,166,39,03,55,051,29,07,69,305,32,08,34,314,33*70
$GPGSV,3,2,09,09,29,314,32,11,38,162,39,13,32,215,22,23,10,190,33*7D
$GPGSV,3,3,09,28,,,17*7C
$GPGLL,4042.11016,N,07512.53164,W,024951.00,A,A*71
$GPRMC,024952.00,A,4042.11015,N,07512.53165,W,0.092,,230214,,,A*64
$GPVTG,,T,,M,0.092,N,0.171,K,A*2F
$GPGGA,024952.00,4042.11015,N,07512.53165,W,1,08,1.34,115.8,M,-34.4,M,,*68
$GPGSA,A,3,01,03,08,07,09,11,13,23,,,,,2.40,1.34,1.99*04
$GPGSV,3,1,09,01,13,166,39,03,55,051,29,07,69,305,31,08,34,314,33*73
$GPGSV,3,2,09,09,29,314,32,11,38,162,39,13,32,215,23,23,10,190,33*7C
$GPGSV,3,3,09,28,,,18*73
$GPGLL,4042.11015,N,07512.53165,W,024952.00,A,A*70
$GPRMC,024953.00,A,4042.11013,N,07512.53173,W,0.085,,230214,,,A*62
$GPVTG,,T,,M,0.085,N,0.158,K,A*22
$GPGGA,024953.00,4042.11013,N,07512.53173,W,1,08,1.34,116.1,M,-34.4,M,,*62
$GPGSA,A,3,01,03,08,07,09,11,13,23,,,,,2.40,1.34,1.99*04
$GPGSV,3,1,09,01,13,166,39,03,55,051,29,07,69,305,31,08,34,314,33*73
$GPGSV,3,2,09,09,29,314,32,11,38,162,39,13,32,215,23,23,10,190,33*7C
$GPGSV,3,3,09,28,,,18*73
$GPGLL,4042.11013,N,07512.53173,W,024953.00,A,A*70
$GPRMC,024954.00,A,4042.11006,N,07512.53188,W,0.227,,230214,,,A*6F
$GPVTG,,T,,M,0.227,N,0.420,K,A*22
$GPGGA,024954.00,4042.11006,N,07512.53188,W,1,08,1.34,116.5,M,-34.4,M,,*61
$GPGSA,A,3,01,03,08,07,09,11,13,23,,,,,2.40,1.34,1.99*04
$GPGSV,3,1,09,01,13,166,39,03,55,051,28,07,69,305,30,08,34,314,33*73
$GPGSV,3,2,09,09,29,314,32,11,38,162,39,13,31,215,24,23,10,190,32*79
$GPGSV,3,3,09,28,,,17*7C
$GPGLL,4042.11006,N,07512.53188,W,024954.00,A,A*77
$GPRMC,024955.00,A,4042.11002,N,07512.53195,W,0.045,,230214,,,A*60
$GPVTG,,T,,M,0.045,N,0.083,K,A*29
$GPGGA,024955.00,4042.11002,N,07512.53195,W,1,08,1.34,116.9,M,-34.4,M,,*64
$GPGSA,A,3,01,03,08,07,09,11,13,23,,,,,2.40,1.34,1.99*04
$GPGSV,3,1,09,01,13,166,39,03,55,051,28,07,69,305,29,08,34,314,33*7B
$GPGSV,3,2,09,09,29,314,32,11,38,162,39,13,31,215,23,23,10,190,33*7F
$GPGSV,3,3,09,28,,,19*72
$GPGLL,4042.11002,N,07512.53195,W,024955.00,A,A*7E
$GPRMC,024956.00,A,4042.11002,N,07512.53200,W,0.024,,230214,,,A*6B
$GPVTG,,T,,M,0.024,N,0.045,K,A*24
$GPGGA,024956.00,4042.11002,N,07512.53200,W,1,08,1.34,117.2,M,-34.4,M,,*62
$GPGSA,A,3,01,03,08,07,09,11,13,23,,,,,2.40,1.34,1.99*04
$GPGSV,3,1,09,01,13,166,39,03,55,051,27,07,69,305,28,08,34,314,34*72
$GPGSV,3,2,09,09,29,314,32,11,38,162,39,13,31,215,23,23,10,190,32*7E
$GPGSV,3,3,09,28,,,19*72
$GPGLL,4042.11002,N,07512.53200,W,024956.00,A,A*72
$GPRMC,024957.00,A,4042.11005,N,07512.53204,W,0.023,,230214,,,A*6E
$GPVTG,,T,,M,0.023,N,0.043,K,A*25
$GPGGA,024957.00,4042.11005,N,07512.53204,W,1,08,1.34,117.4,M,-34.4,M,,*66
$GPGSA,A,3,01,03,08,07,09,11,13,23,,,,,2.40,1.34,2.00*07
$GPGSV,3,1,09,01,13,166,39,03,55,051,27,07,69,305,27,08,34,314,34*7D
$GPGSV,3,2,09,09,29,314,33,11,38,162,39,13,31,215,23,23,10,190,32*7F
$GPGSV,3,3,09,28,,,20*78
$GPGLL,4042.11005,N,07512.53204,W,024957.00,A,A*70
$GPRMC,024958.00,A,4042.11009,N,07512.53211,W,0.056,,230214,,,A*6B
$GPVTG,,T,,M,0.056,N,0.104,K,A*25
$GPGGA,024958.00,4042.11009,N,07512.53211,W,1,08,1.34,117.6,M,-34.4,M,,*63
$GPGSA,A,3,01,03,08,07,09,11,13,23,,,,,2.40,1.34,2.00*07
$GPGSV,3,1,09,01,13,166,39,03,55,051,26,07,69,305,26,08,34,314,34*7D
$GPGSV,3,2,09,09,29,314,33,11,38,162,39,13,31,215,24,23,10,190,32*78
$GPGSV,3,3,09,28,,,20*78
$GPGLL,4042.11009,N,07512.53211,W,024958.00,A,A*77
$GPRMC,024959.00,A,4042.11011,N,07512.53218,W,0.111,,230214,,,A*68
$GPVTG,,T,,M,0.111,N,0.205,K,A*25
$GPGGA,024959.00,4042.11011,N,07512.53218,W,1,08,1.34,117.8,M,-34.4,M,,*6C
$GPGSA,A,3,01,03,08,07,09,11,13,23,,,,,2.40,1.34,2.00*07
$GPGSV,3,1,09,01,13,166,39,03,55,051,26,07,69,305,25,08,34,314,33*79
$GPGSV,3,2,09,09,29,314,33,11,38,162,39,13,31,215,25,23,10,190,31*7A
$GPGSV,3,3,09,28,,,20*78
$GPGLL,4042.11011,N,07512.53218,W,024959.00,A,A*76
$GPRMC,025000.00,A,4042.11013,N,07512.53218,W,0.027,,230214,,,A*6A
$GPVTG,,T,,M,0.027,N,0.051,K,A*22
$GPGGA,025000.00,4042.11013,N,07512.53218,W,1,08,1.34,118.1,M,-34.4,M,,*6C
$GPGSA,A,3,01,03,08,07,09,11,13,23,,,,,2.40,1.34,2.00*07
$GPGSV,3,1,09,01,13,166,39,03,55,051,25,07,69,305,24,08,34,314,34*7C
$GPGSV,3,2,09,09,29,314,33,11,38,162,39,13,31,215,26,23,10,190,31*79
$GPGSV,3,3,09,28,,,20*78
$GPGLL,4042.11013,N,07512.53218,W,025000.00,A,A*70
$GPRMC,025001.00,A,4042.11016,N,07512.53223,W,0.049,,230214,,,A*6E
$GPVTG,,T,,M,0.049,N,0.090,K,A*27
$GPGGA,025001.00,4042.11016,N,07512.53223,W,1,08,1.34,118.5,M,-34.4,M,,*64
$GPGSA,A,3,01,03,08,07,09,11,13,23,,,,,2.40,1.34,2.00*07
$GPGSV,3,1,09,01,13,166,39,03,55,051,24,07,69,305,24,08,34,314,34*7D
$GPGSV,3,2,09,09,29,314,33,11,38,162,40,13,31,215,27,23,10,190,31*76
$GPGSV,3,3,09,28,,,21*79
$GPGLL,4042.11016,N,07512.53223,W,025001.00,A,A*7C
$GPRMC,025002.00,A,4042.11036,N,07512.53193,W,0.846,47.59,230214,,,A*41
$GPVTG,47.59,T,,M,0.846,N,1.567,K,A*0D
$GPGGA,025002.00,4042.11036,N,07512.53193,W,1,08,1.34,118.6,M,-34.4,M,,*6E
$GPGSA,A,3,01,03,08,07,09,11,13,23,,,,,2.40,1.34,2.00*07
$GPGSV,3,1,09,01,13,166,38,03,55,051,23,07,69,305,24,08,34,314,34*7B
$GPGSV,3,2,09,09,29,314,33,11,38,162,40,13,31,215,28,23,10,190,30*78
$GPGSV,3,3,09,28,,,21*79
$GPGLL,4042.11036,N,07512.53193,W,025002.00,A,A*75
$GPRMC,025003.00,A,4042.11054,N,07512.53162,W,0.662,,230214,,,A*63
$GPVTG,,T,,M,0.662,N,1.226,K,A*26
$GPGGA,025003.00,4042.11054,N,07512.53162,W,1,08,1.34,118.7,M,-34.4,M,,*64
$GPGSA,A,3,01,03,08,07,09,11,13,23,,,,,2.40,1.34,2.00*07
$GPGSV,3,1,09,01,13,166,38,03,55,051,23,07,69,305,24,08,34,314,34*7B
$GPGSV,3,2,09,09,29,314,33,11,38,162,40,13,31,215,28,23,10,190,29*70
$GPGSV,3,3,09,28,,,22*7A
$GPGLL,4042.11054,N,07512.53162,W,025003.00,A,A*7E
$GPRMC,025004.00,A,4042.11069,N,07512.53138,W,0.467,,230214,,,A*62
$GPVTG,,T,,M,0.467,N,0.865,K,A*2D
$GPGGA,025004.00,4042.11069,N,07512.53138,W,1,08,1.34,118.7,M,-34.4,M,,*62
$GPGSA,A,3,01,03,08,07,09,11,13,23,,,,,2.40,1.34,2.00*07
$GPGSV,3,1,09,01,13,166,38,03,55,051,24,07,69,305,26,08,34,314,33*79
$GPGSV,3,2,09,09,29,314,33,11,38,162,40,13,31,215,28,23,09,190,28*79
$GPGSV,3,3,09,28,,,22*7A
$GPGLL,4042.11069,N,07512.53138,W,025004.00,A,A*78
$GPRMC,025005.00,A,4042.11079,N,07512.53129,W,0.095,,230214,,,A*6B
$GPVTG,,T,,M,0.095,N,0.176,K,A*2F
$GPGGA,025005.00,4042.11079,N,07512.53129,W,1,08,1.34,118.8,M,-34.4,M,,*6D
$GPGSA,A,3,01,03,08,07,09,11,13,23,,,,,2.40,1.34,2.00*07
$GPGSV,3,1,09,01,13,166,38,03,55,051,23,07,69,305,27,08,34,314,33*7F
$GPGSV,3,2,09,09,29,314,33,11,38,162,40,13,31,215,29,23,09,190,27*77
$GPGSV,3,3,09,28,,,22*7A
$GPGLL,4042.11079,N,07512.53129,W,025005.00,A,A*78
$GPRMC,025006.00,A,4042.11077,N,07512.53145,W,0.737,332.07,230214,,,A*78
$GPVTG,332.07,T,,M,0.737,N,1.364,K,A*3B
$GPGGA,025006.00,4042.11077,N,07512.53145,W,1,08,1.34,118.9,M,-34.4,M,,*6B
$GPGSA,A,3,01,03,08,07,09,11,13,23,,,,,2.40,1.34,2.00*07
$GPGSV,3,1,09,01,13,166,38,03,55,051,23,07,69,305,27,08,34,314,34*78
$GPGSV,3,2,09,09,29,314,33,11,38,162,40,13,31,215,29,23,09,190,27*77
$GPGSV,3,3,09,28,,,21*79
$GPGLL,4042.11077,N,07512.53145,W,025006.00,A,A*7F
$GPRMC,025007.00,A,4042.11084,N,07512.53141,W,0.223,,230214,,,A*6A
$GPVTG,,T,,M,0.223,N,0.413,K,A*26
$GPGGA,025007.00,4042.11084,N,07512.53141,W,1,08,1.34,118.8,M,-34.4,M,,*63
$GPGSA,A,3,01,03,08,07,09,11,13,23,,,,,2.40,1.34,2.00*07
$GPGSV,3,1,09,01,13,166,38,03,55,051,22,07,69,305,27,08,34,314,33*7E
$GPGSV,3,2,09,09,29,314,33,11,38,162,40,13,31,215,29,23,09,190,27*77
$GPGSV,3,3,09,28,,,20*78
$GPGLL,4042.11084,N,07512.53141,W,025007.00,A,A*76
$GPRMC,025008.00,A,4042.11091,N,07512.53137,W,0.284,,230214,,,A*6D
$GPVTG,,T,,M,0.284,N,0.525,K,A*2F
$GPGGA,025008.00,4042.11091,N,07512.53137,W,1,08,1.34,118.8,M,-34.4,M,,*69
$GPGSA,A,3,01,03,08,07,09,11,13,23,,,,,2.40,1.34,2.00*07
$GPGSV,3,1,09,01,13,166,38,03,55,051,23,07,69,305,28,08,34,314,33*70
$GPGSV,3,2,09,09,29,314,32,11,38,162,40,13,31,215,29,23,09,190,27*76
$GPGSV,3,3,09,28,,,19*72
$GPGLL,4042.11091,N,07512.53137,W,025008.00,A,A*7C
$GPRMC,025009.00,A,4042.11100,N,07512.53126,W,0.156,,230214,,,A*69
$GPVTG,,T,,M,0.156,N,0.289,K,A*22
$GPGGA,025009.00,4042.11100,N,07512.53126,W,1,08,1.34,118.6,M,-34.4,M,,*6F
$GPGSA,A,3,01,03,08,07,09,11,13,23,,,,,2.40,1.34,2.00*07
$GPGSV,3,1,09,01,13,166,38,03,55,051,23,07,69,305,29,08,34,314,34*76
$GPGSV,3,2,09,09,29,314,32,11,38,162,40,13,31,215,29,23,09,190,28*79
$GPGSV,3,3,09,28,,,18*73
$GPGLL,4042.11100,N,07512.53126,W,025009.00,A,A*74
$GPRMC,025010.00,A,4042.11106,N,07512.53123,W,0.432,,230214,,,A*65
$GPVTG,,T,,M,0.432,N,0.801,K,A*2F
$GPGGA,025010.00,4042.11106,N,07512.53123,W,1,08,1.34,118.4,M,-34.4,M,,*66
$GPGSA,A,3,01,03,08,07,09,11,13,23,,,,,2.40,1.34,2.00*07
$GPGSV,3,1,09,01,13,166,38,03,55,051,24,07,69,305,29,08,34,314,34*71
$GPGSV,3,2,09,09,29,314,32,11,38,162,40,13,31,215,29,23,09,190,28*79
$GPGSV,3,3,09,28,,,18*73
$GPGLL,4042.11106,N,07512.53123,W,025010.00,A,A*7F
$GPRMC,025011.00,A,4042.11110,N,07512.53128,W,0.778,291.69,230214,,,A*7E
$GPVTG,291.69,T,,M,0.778,N,1.440,K,A*31
$GPGGA,025011.00,4042.11110,N,07512.53128,W,1,08,1.34,118.1,M,-34.4,M,,*6E
$GPGSA,A,3,01,03,08,07,09,11,13,23,,,,,2.40,1.34,2.00*07
$GPGSV,3,1,09,01,13,166,38,03,55,051,23,07,69,305,30,08,34,314,34*7E
$GPGSV,3,2,09,09,29,314,33,11,38,162,40,13,31,215,30,23,09,190,28*70
$GPGSV,3,3,09,28,,,18*73
$GPGLL,4042.11110,N,07512.53128,W,025011.00,A,A*72
$GPRMC,025012.00,A,4042.11121,N,07512.53124,W,0.473,,230214,,,A*60
$GPVTG,,T,,M,0.473,N,0.876,K,A*2A
$GPGGA,025012.00,4042.11121,N,07512.53124,W,1,08,1.34,117.9,M,-34.4,M,,*64
$GPGSA,A,3,01,03,08,07,09,11,13,23,,,,,2.40,1.34,2.00*07
$GPGSV,3,1,09,01,13,166,38,03,55,051,22,07,69,305,30,08,34,314,34*7F
$GPGSV,3,2,09,09,29,314,33,11,38,162,41,13,31,215,30,23,09,190,28*71
$GPGSV,3,3,09,28,,,16*7D
$GPGLL,4042.11121,N,07512.53124,W,025012.00,A,A*7F
$GPRMC,025013.00,A,4042.11141,N,07512.53094,W,0.033,,230214,,,A*6D
$GPVTG,,T,,M,0.033,N,0.060,K,A*25
$GPGGA,025013.00,4042.11141,N,07512.53094,W,1,08,1.34,117.3,M,-34.4,M,,*63
$GPGSA,A,3,01,03,08,07,09,11,13,23,,,,,2.41,1.34,2.00*06
$GPGSV,3,1,09,01,13,166,38,03,55,051,21,07,69,305,31,08,34,314,33*7A
$GPGSV,3,2,09,09,29,314,33,11,38,162,41,13,31,215,30,23,09,190,29*70
$GPGSV,3,3,09,28,,,13*78
$GPGLL,4042.11141,N,07512.53094,W,025013.00,A,A*72
$GPRMC,025014.00,A,4042.11173,N,07512.53026,W,0.824,,230214,,,A*6C
$GPVTG,,T,,M,0.824,N,1.527,K,A*2C
$GPGGA,025014.00,4042.11173,N,07512.53026,W,1,08,1.34,116.5,M,-34.4,M,,*6B
$GPGSA,A,3,01,03,08,07,09,11,13,23,,,,,2.41,1.34,2.00*06
$GPGSV,3,1,09,01,13,166,38,03,55,051,19,07,69,305,32,08,34,314,33*72
$GPGSV,3,2,09,09,29,314,33,11,38,162,41,13,31,215,30,23,09,190,29*70
$GPGSV,3,3,09,28,,,11*7A
$GPGLL,4042.11173,N,07512.53026,W,025014.00,A,A*7D
$GPRMC,025015.00,A,4042.11199,N,07512.52971,W,0.668,358.61,230214,,,A*72
$GPVTG,358.61,T,,M,0.668,N,1.238,K,A*34
$GPGGA,025015.00,4042.11199,N,07512.52971,W,1,08,1.34,115.6,M,-34.4,M,,*64
$GPGSA,A,3,01,03,08,07,09,11,13,23,,,,,2.41,1.34,2.00*06
$GPGSV,3,1,09,01,13,166,38,03,55,051,18,07,69,305,32,08,34,314,34*74
$GPGSV,3,2,09,09,29,314,33,11,38,162,41,13,31,215,30,23,09,190,28*71
$GPGSV,3,3,09,28,,,09*73
$GPGLL,4042.11199,N,07512.52971,W,025015.00,A,A*72
$GPRMC,025016.00,A,4042.11210,N,07512.52947,W,0.060,,230214,,,A*6F
$GPVTG,,T,,M,0.060,N,0.112,K,A*27
$GPGGA,025016.00,4042.11210,N,07512.52947,W,1,08,1.34,115.2,M,-34.4,M,,*64
$GPGSA,A,3,01,03,08,07,09,11,13,23,,,,,2.41,1.34,2.00*06
$GPGSV,3,1,10,01,13,166,38,03,55,051,18,07,69,305,33,08,34,314,33*7A
$GPGSV,3,2,10,09,29,314,33,11,38,162,41,13,31,215,30,16,24,076,*73
$GPGSV,3,3,10,23,09,190,29,28,,,08*41
$GPGLL,4042.11210,N,07512.52947,W,025016.00,A,A*76
$GPRMC,025017.00,A,4042.11218,N,07512.52927,W,0.064,,230214,,,A*64
$GPVTG,,T,,M,0.064,N,0.119,K,A*28
$GPGGA,025017.00,4042.11218,N,07512.52927,W,1,08,1.34,114.6,M,-34.4,M,,*6E
$GPGSA,A,3,01,03,08,07,09,11,13,23,,,,,2.41,1.34,2.00*06
$GPGSV,3,1,09,01,13,166,38,03,55,051,18,07,69,305,34,08,34,314,33*75
$GPGSV,3,2,09,09,29,314,33,11,38,162,41,13,31,215,30,16,24,076,26*7F
$GPGSV,3,3,09,23,09,190,29*4B
$GPGLL,4042.11218,N,07512.52927,W,025017.00,A,A*79
$GPRMC,025018.00,A,4042.11232,N,07512.52896,W,0.085,,230214,,,A*67
$GPVTG,,T,,M,0.085,N,0.157,K,A*2D
$GPGGA,025018.00,4042.11232,N,07512.52896,W,1,08,1.34,113.7,M,-34.4,M,,*64
$GPGSA,A,3,01,03,08,07,09,11,13,23,,,,,2.41,1.34,2.00*06
$GPGSV,3,1,09,01,13,166,38,03,55,051,17,07,69,305,34,08,34,314,34*7D
$GPGSV,3,2,09,09,29,314,34,11,38,162,41,13,31,215,30,16,24,076,26*78
$GPGSV,3,3,09,23,09,190,29*4B
$GPGLL,4042.11232,N,07512.52896,W,025018.00,A,A*75
$GPRMC,025019.00,A,4042.11244,N,07512.52871,W,0.065,,230214,,,A*60
$GPVTG,,T,,M,0.065,N,0.120,K,A*23
$GPGGA,025019.00,4042.11244,N,07512.52871,W,1,08,1.34,112.9,M,-34.4,M,,*62
$GPGSA,A,3,01,03,08,07,09,11,13,23,,,,,2.41,1.34,2.00*06
$GPGSV,3,1,09,01,13,166,38,03,55,051,18,07,69,305,35,08,34,314,34*73
$GPGSV,3,2,09,09,29,314,34,11,38,162,41,13,31,215,30,16,24,076,26*78
$GPGSV,3,3,09,23,09,190,29*4B
$GPGLL,4042.11244,N,07512.52871,W,025019.00,A,A*7C
$GPRMC,025020.00,A,4042.11264,N,07512.52828,W,0.285,,230214,,,A*68
$GPVTG,,T,,M,0.285,N,0.527,K,A*2C
$GPGGA,025020.00,4042.11264,N,07512.52828,W,1,08,1.34,111.9,M,-34.4,M,,*65
$GPGSA,A,3,01,03,08,07,09,11,13,23,,,,,2.41,1.34,2.00*06
$GPGSV,3,1,09,01,13,166,38,03,55,051,18,07,69,305,35,08,34,314,33*74
$GPGSV,3,2,09,09,29,314,34,11,38,162,41,13,31,215,31,16,24,076,26*79
$GPGSV,3,3,09,23,09,190,29*4B
$GPGLL,4042.11264,N,07512.52828,W,025020.00,A,A*78
$GPRMC,025021.00,A,4042.11280,N,07512.52794,W,0.026,,230214,,,A*60
$GPVTG,,T,,M,0.026,N,0.047,K,A*24
$GPGGA,025021.00,4042.11280,N,07512.52794,W,1,08,1.34,110.9,M,-34.4,M,,*67
$GPGSA,A,3,01,03,08,07,09,11,13,23,,,,,2.41,1.34,2.00*06
$GPGSV,3,1,09,01,13,166,38,03,55,051,18,07,69,305,36,08,34,314,33*77
$GPGSV,3,2,09,09,29,314,34,11,38,162,41,13,31,215,31,16,24,076,26*79
$GPGSV,3,3,09,23,09,190,29*4B
$GPGLL,4042.11280,N,07512.52794,W,025021.00,A,A*7B
$GPRMC,025022.00,A,4042.11303,N,07512.52741,W,0.352,,230214,,,A*61
$GPVTG,,T,,M,0.352,N,0.652,K,A*26
$GPGGA,025022.00,4042.11303,N,07512.52741,W,1,08,1.34,109.9,M,-34.4,M,,*6E
$GPGSA,A,3,01,03,08,07,09,11,13,23,,,,,2.41,1.34,2.00*06
$GPGSV,3,1,09,01,13,166,37,03,55,051,19,07,69,305,36,08,34,314,33*79
$GPGSV,3,2,09,09,29,314,34,11,38,162,41,13,31,215,31,16,24,076,26*79
$GPGSV,3,3,09,23,09,190,30*43
$GPGLL,4042.11303,N,07512.52741,W,025022.00,A,A*7A
$GPRMC,025023.00,A,4042.11324,N,07512.52692,W,0.136,,230214,,,A*6A
$GPVTG,,T,,M,0.136,N,0.252,K,A*22
$GPGGA,025023.00,4042.11324,N,07512.52692,W,1,08,1.34,108.8,M,-34.4,M,,*65
$GPGSA,A,3,01,03,08,07,09,11,13,23,,,,,2.41,1.34,2.00*06
$GPGSV,3,1,09,01,13,166,37,03,55,051,20,07,69,305,36,08,34,314,33*73
$GPGSV,3,2,09,09,29,314,34,11,38,162,41,13,31,215,31,16,24,076,26*79
$GPGSV,3,3,09,23,09,190,30*43
$GPGLL,4042.11324,N,07512.52692,W,025023.00,A,A*71
$GPRMC,025024.00,A,4042.11346,N,07512.52640,W,0.096,,230214,,,A*6D
$GPVTG,,T,,M,0.096,N,0.178,K,A*22
$GPGGA,025024.00,4042.11346,N,07512.52640,W,1,08,1.34,108.0,M,-34.4,M,,*61
$GPGSA,A,3,01,03,08,07,09,11,13,23,,,,,2.41,1.34,2.00*06
$GPGSV,3,1,09,01,13,166,37,03,55,051,20,07,69,305,36,08,34,314,33*73
$GPGSV,3,2,09,09,29,314,34,11,38,162,41,13,31,215,31,16,24,076,26*79
$GPGSV,3,3,09,23,09,190,30*43
$GPGLL,4042.11346,N,07512.52640,W,025024.00,A,A*7D
$GPRMC,025025.00,A,4042.11370,N,07512.52590,W,0.211,,230214,,,A*6A
$GPVTG,,T,,M,0.211,N,0.390,K,A*2B
$GPGGA,025025.00,4042.11370,N,07512.52590,W,1,08,1.34,107.0,M,-34.4,M,,*64
$GPGSA,A,3,01,03,08,07,09,11,13,23,,,,,2.41,1.34,2.00*06
$GPGSV,3,1,09,01,13,166,37,03,55,051,19,07,69,305,36,08,34,314,34*7E
$GPGSV,3,2,09,09,29,314,35,11,38,162,41,13,31,215,31,16,24,076,26*78
$GPGSV,3,3,09,23,09,190,30*43
$GPGLL,4042.11370,N,07512.52590,W,025025.00,A,A*77
$GPRMC,025026.00,A,4042.11398,N,07512.52529,W,0.212,,230214,,,A*6E
$GPVTG,,T,,M,0.212,N,0.393,K,A*2B
$GPGGA,025026.00,4042.11398,N,07512.52529,W,1,08,1.34,106.1,M,-34.4,M,,*63
$GPGSA,A,3,01,03,08,07,09,11,13,23,,,,,2.41,1.34,2.00*06
$GPGSV,3,1,09,01,13,166,37,03,55,051,18,07,69,305,36,08,34,314,33*78
$GPGSV,3,2,09,09,29,314,35,11,38,162,41,13,31,215,32,16,24,076,26*7B
$GPGSV,3,3,09,23,09,190,31*42
$GPGLL,4042.11398,N,07512.52529,W,025026.00,A,A*70
$GPRMC,025027.00,A,4042.11431,N,07512.52458,W,0.528,,230214,,,A*62
$GPVTG,,T,,M,0.528,N,0.978,K,A*2A
$GPGGA,025027.00,4042.11431,N,07512.52458,W,1,08,1.34,105.1,M,-34.4,M,,*62
$GPGSA,A,3,01,03,08,07,09,11,13,23,,,,,2.41,1.34,2.00*06
$GPGSV,3,1,09,01,13,166,37,03,55,051,18,07,69,305,36,08,34,314,33*78
$GPGSV,3,2,09,09,29,314,35,11,38,162,41,13,31,215,32,16,24,076,26*7B
$GPGSV,3,3,09,23,09,190,31*42
$GPGLL,4042.11431,N,07512.52458,W,025027.00,A,A*72
$GPRMC,025028.00,A,4042.11461,N,07512.52393,W,0.303,,230214,,,A*67
$GPVTG,,T,,M,0.303,N,0.562,K,A*22
$GPGGA,025028.00,4042.11461,N,07512.52393,W,1,08,1.34,104.2,M,-34.4,M,,*6A
$GPGSA,A,3,01,03,08,07,09,11,13,23,,,,,2.41,1.34,2.00*06
$GPGSV,3,1,09,01,13,166,37,03,55,051,18,07,69,305,36,08,34,314,34*7F
$GPGSV,3,2,09,09,29,314,35,11,38,162,41,13,31,215,32,16,24,076,27*7A
$GPGSV,3,3,09,23,09,190,31*42
$GPGLL,4042.11461,N,07512.52393,W,025028.00,A,A*78
$GPRMC,025029.00,A,4042.11491,N,07512.52330,W,0.451,,230214,,,A*60
$GPVTG,,T,,M,0.451,N,0.835,K,A*2D
$GPGGA,025029.00,4042.11491,N,07512.52330,W,1,08,1.34,103.4,M,-34.4,M,,*6C
$GPGSA,A,3,01,03,08,07,09,11,13,23,,,,,2.41,1.34,2.00*06
$GPGSV,3,1,09,01,13,166,37,03,55,051,17,07,69,305,36,08,34,314,33*77
$GPGSV,3,2,09,09,29,314,35,11,38,162,41,13,31,215,32,16,24,076,26*7B
$GPGSV,3,3,09,23,09,190,31*42
$GPGLL,4042.11491,N,07512.52330,W,025029.00,A,A*7F
$GPRMC,025030.00,A,4042.11533,N,07512.52239,W,1.288,35.06,230214,,,A*44
$GPVTG,35.06,T,,M,1.288,N,2.386,K,A*01
$GPGGA,025030.00,4042.11533,N,07512.52239,W,1,08,1.34,102.5,M,-34.4,M,,*65
$GPGSA,A,3,01,03,08,07,09,11,13,23,,,,,2.41,1.34,2.00*06
$GPGSV,3,1,09,01,13,166,37,03,55,051,16,07,69,305,36,08,34,314,33*76
$GPGSV,3,2,09,09,29,314,35,11,38,162,41,13,31,215,32,16,24,076,26*7B
$GPGSV,3,3,09,23,09,190,31*42
$GPGLL,4042.11533,N,07512.52239,W,025030.00,A,A*76
$GPRMC,025031.00,A,4042.11553,N,07512.52194,W,0.084,,230214,,,A*66
$GPVTG,,T,,M,0.084,N,0.155,K,A*2E
$GPGGA,025031.00,4042.11553,N,07512.52194,W,1,08,1.34,101.9,M,-34.4,M,,*69
$GPGSA,A,3,01,03,08,07,09,11,13,23,,,,,2.41,1.34,2.00*06
$GPGSV,3,1,09,01,13,166,37,03,55,051,17,07,69,305,36,08,34,314,33*77
$GPGSV,3,2,09,09,29,314,35,11,38,162,41,13,31,215,32,16,24,076,26*7B
$GPGSV,3,3,09,23,09,190,31*42
$GPGLL,4042.11553,N,07512.52194,W,025031.00,A,A*75
$GPRMC,025032.00,A,4042.11570,N,07512.52157,W,0.057,,230214,,,A*65
$GPVTG,,T,,M,0.057,N,0.106,K,A*26
$GPGGA,025032.00,4042.11570,N,07512.52157,W,1,08,1.34,101.3,M,-34.4,M,,*6E
$GPGSA,A,3,01,03,08,07,09,11,13,23,,,,,2.41,1.34,2.00*06
$GPGSV,3,1,09,01,13,166,37,03,55,051,18,07,69,305,36,08,34,314,33*78
$GPGSV,3,2,09,09,29,314,35,11,38,162,42,13,31,215,32,16,24,076,26*78
$GPGSV,3,3,09,23,09,190,31*42
$GPGLL,4042.11570,N,07512.52157,W,025032.00,A,A*78
$GPRMC,025033.00,A,4042.11586,N,07512.52122,W,0.100,,230214,,,A*6C
$GPVTG,,T,,M,0.100,N,0.184,K,A*2F
$GPGGA,025033.00,4042.11586,N,07512.52122,W,1,08,1.34,100.6,M,-34.4,M,,*60
$GPGSA,A,3,01,03,08,07,09,11,13,23,,,,,2.41,1.34,2.00*06
$GPGSV,3,1,09,01,13,166,37,03,55,051,18,07,69,305,36,08,34,314,33*78
$GPGSV,3,2,09,09,29,314,35,11,38,162,42,13,31,215,32,16,24,076,27*79
$GPGSV,3,3,09,23,09,190,31*42
$GPGLL,4042.11586,N,07512.52122,W,025033.00,A,A*72
$GPRMC,025034.00,A,4042.11597,N,07512.52097,W,0.081,,230214,,,A*6C
$GPVTG,,T,,M,0.081,N,0.151,K,A*2F
$GPGGA,025034.00,4042.11597,N,07512.52097,W,1,09,0.99,100.2,M,-34.4,M,,*6B
$GPGSA,A,3,01,03,08,07,09,11,16,13,23,,,,2.08,0.99,1.83*02
$GPGSV,3,1,09,01,13,166,36,03,55,051,17,07,69,305,36,08,34,314,33*76
$GPGSV,3,2,09,09,29,314,35,11,38,162,42,13,31,215,32,16,24,076,27*79
$GPGSV,3,3,09,23,09,190,32*41
$GPGLL,4042.11597,N,07512.52097,W,025034.00,A,A*7A
$GPRMC,025035.00,A,4042.11607,N,07512.52076,W,0.151,,230214,,,A*64
$GPVTG,,T,,M,0.151,N,0.280,K,A*2C
$GPGGA,025035.00,4042.11607,N,07512.52076,W,1,09,0.99,99.9,M,-34.4,M,,*55
$GPGSA,A,3,01,03,08,07,09,11,16,13,23,,,,2.08,0.99,1.83*02
$GPGSV,3,1,09,01,13,166,36,03,55,051,15,07,69,305,35,08,34,314,33*77
$GPGSV,3,2,09,09,29,314,35,11,38,162,41,13,31,215,31,16,24,076,26*78
$GPGSV,3,3,09,23,09,190,31*42
$GPGLL,4042.11607,N,07512.52076,W,025035.00,A,A*7E
$GPRMC,025036.00,A,4042.11616,N,07512.52059,W,0.057,,230214,,,A*6D
$GPVTG,,T,,M,0.057,N,0.105,K,A*25
$GPGGA,025036.00,4042.11616,N,07512.52059,W,1,09,0.99,99.5,M,-34.4,M,,*57
$GPGSA,A,3,01,03,08,07,09,11,16,13,23,,,,2.08,0.99,1.83*02
$GPGSV,3,1,09,01,13,166,37,03,55,051,11,07,69,305,35,08,34,314,34*75
$GPGSV,3,2,09,09,29,314,36,11,38,162,41,13,31,215,31,16,24,076,26*7B
$GPGSV,3,3,09,23,09,190,31*42
$GPGLL,4042.11616,N,07512.52059,W,025036.00,A,A*70
$GPRMC,025037.00,A,4042.11624,N,07512.52046,W,0.062,,230214,,,A*65
$GPVTG,,T,,M,0.062,N,0.115,K,A*22
$GPGGA,025037.00,4042.11624,N,07512.52046,W,1,09,0.99,99.1,M,-34.4,M,,*5D
$GPGSA,A,3,01,03,08,07,09,11,16,13,23,,,,2.08,0.99,1.83*02
$GPGSV,3,1,09,01,13,166,37,03,55,051,10,07,69,305,34,08,34,314,34*75
$GPGSV,3,2,09,09,29,314,36,11,38,162,42,13,31,215,30,16,24,076,26*79
$GPGSV,3,3,09,23,09,190,31*42
$GPGLL,4042.11624,N,07512.52046,W,025037.00,A,A*7E
$GPRMC,025038.00,A,4042.11631,N,07512.52036,W,0.031,,230214,,,A*6F
$GPVTG,,T,,M,0.031,N,0.058,K,A*2C
$GPGGA,025038.00,4042.11631,N,07512.52036,W,1,08,0.99,98.8,M,-34.4,M,,*58
$GPGSA,A,3,01,08,07,09,11,16,13,23,,,,,2.08,0.99,1.83*01
$GPGSV,3,1,09,01,13,166,37,03,55,051,09,07,69,305,34,08,34,314,34*7D
$GPGSV,3,2,09,09,29,314,36,11,38,162,42,13,31,215,30,16,24,076,25*7A
$GPGSV,3,3,09,23,09,190,31*42
$GPGLL,4042.11631,N,07512.52036,W,025038.00,A,A*72
$GPRMC,025039.00,A,4042.11639,N,07512.52027,W,0.079,,230214,,,A*6A
$GPVTG,,T,,M,0.079,N,0.146,K,A*2E
$GPGGA,025039.00,4042.11639,N,07512.52027,W,1,08,0.99,98.4,M,-34.4,M,,*5D
$GPGSA,A,3,01,08,07,09,11,16,13,23,,,,,2.08,0.99,1.83*01
$GPGSV,3,1,09,01,13,166,37,03,55,051,09,07,69,305,34,08,34,314,34*7D
$GPGSV,3,2,09,09,29,314,35,11,38,162,42,13,31,215,30,16,24,076,25*79
$GPGSV,3,3,09,23,09,190,31*42
$GPGLL,4042.11639,N,07512.52027,W,025039.00,A,A*7B
$GPRMC,025040.00,A,4042.11650,N,07512.52014,W,0.359,,230214,,,A*6A
$GPVTG,,T,,M,0.359,N,0.664,K,A*28
$GPGGA,025040.00,4042.11650,N,07512.52014,W,1,08,0.99,98.0,M,-34.4,M,,*58
$GPGSA,A,3,01,08,07,09,11,16,13,23,,,,,2.08,0.99,1.83*01
$GPGSV,3,1,09,01,13,166,37,03,55,051,09,07,69,305,33,08,34,314,34*7A
$GPGSV,3,2,09,09,29,314,35,11,38,162,42,13,31,215,30,16,24,076,25*79
$GPGSV,3,3,09,23,09,190,31*42
$GPGLL,4042.11650,N,07512.52014,W,025040.00,A,A*7A
$GPRMC,025041.00,A,4042.11652,N,07512.52018,W,0.166,,230214,,,A*6B
$GPVTG,,T,,M,0.166,N,0.307,K,A*26
$GPGGA,025041.00,4042.11652,N,07512.52018,W,1,08,0.99,97.7,M,-34.4,M,,*5F
$GPGSA,A,3,01,08,07,09,11,16,13,23,,,,,2.08,0.99,1.83*01
$GPGSV,3,1,09,01,13,166,37,03,55,051,,07,69,305,33,08,34,314,34*73
$GPGSV,3,2,09,09,29,314,36,11,38,162,42,13,31,215,29,16,24,076,25*72
$GPGSV,3,3,09,23,09,190,31*42
$GPGLL,4042.11652,N,07512.52018,W,025041.00,A,A*75
$GPRMC,025042.00,A,4042.11655,N,07512.52021,W,0.027,,230214,,,A*61
$GPVTG,,T,,M,0.027,N,0.050,K,A*23
$GPGGA,025042.00,4042.11655,N,07512.52021,W,1,09,0.99,97.4,M,-34.4,M,,*53
$GPGSA,A,3,01,03,08,07,09,11,16,13,23,,,,2.08,0.99,1.83*02
$GPGSV,3,1,09,01,13,166,37,03,55,051,18,07,69,305,33,08,34,314,34*7A
$GPGSV,3,2,09,09,29,314,36,11,38,162,43,13,31,215,28,16,24,076,25*72
$GPGSV,3,3,09,23,09,190,31*42
$GPGLL,4042.11655,N,07512.52021,W,025042.00,A,A*7B
$GPRMC,025043.00,A,4042.11657,N,07512.52022,W,0.168,,230214,,,A*6B
$GPVTG,,T,,M,0.168,N,0.311,K,A*2F
$GPGGA,025043.00,4042.11657,N,07512.52022,W,1,09,0.99,97.0,M,-34.4,M,,*57
$GPGSA,A,3,01,03,08,07,09,11,16,13,23,,,,2.08,0.99,1.83*02
$GPGSV,3,1,09,01,13,166,37,03,55,051,18,07,69,305,33,08,34,314,34*7A
$GPGSV,3,2,09,09,29,314,36,11,38,162,43,13,31,215,28,16,24,076,26*71

